{

    "workExperience": [
        {
            "title": "Credit Officer",
            "location": {
                "address": "Evenemangsgatan 31",
                "city": "Solna"
            },
            "employmentType": "Full Time",
            "dates": {
                "start": "2018-05",
                "end": "2024-09"
            }
        },
        {
            "title": "Web Development Intern",
            "location": {
                "address": "Evenemangsgatan 31",
                "city": "Solna"
            },
            "employmentType": "Internship",
            "dates": {
                "start": "2021-09",
                "end": "2021-12"
            }
        },
        {
            "title": "SEO / SEM Specialist",
            "location": {
                "address": "Evenemangsgatan 31",
                "city": "Solna"
            },
            "employmentType": "Internship",
            "dates": {
                "start": "2021-09",
                "end": "2021-12"
            }
        }
    ],
    "education": [
        {
            "program": "Frontend Development",
            "location": {
                "address": "Evenemangsgatan 31",
                "city": "Solna"
            }
        }
    ]
}
